[
  { "name": "Indore", "lat": 22.7196, "lon": 75.8577 },
  { "name": "Mumbai", "lat": 19.0760, "lon": 72.8777 },
  { "name": "Delhi", "lat": 28.6139, "lon": 77.2090 },
  { "name": "Bangalore", "lat": 12.9716, "lon": 77.5946 },
  { "name": "Chennai", "lat": 13.0827, "lon": 80.2707 }
]
